[
  {
    "id": "AIR_LOS",
    "type": "airport",
    "name": "Los Angeles International Airport",
    "iata": "LOS",
    "city": "Los Angeles",
    "country": "USA",
    "region": "North America",
    "lat": 34.023574729919915,
    "lon": -118.25359597074505,
    "timezone": "UTC",
    "status": "operational",
    "capacity_tons_per_week": 14418,
    "utilization_pct_current": 35.1,
    "last_updated": "2026-02-13T10:13:53Z"
  },
  {
    "id": "AIR_NEW",
    "type": "airport",
    "name": "New York International Airport",
    "iata": "NEW",
    "city": "New York",
    "country": "USA",
    "region": "North America",
    "lat": 40.701842175758784,
    "lon": -73.96334819264406,
    "timezone": "UTC",
    "status": "delayed",
    "capacity_tons_per_week": 11347,
    "utilization_pct_current": 61.2,
    "last_updated": "2026-02-13T10:13:53Z"
  },
  {
    "id": "AIR_HOU",
    "type": "airport",
    "name": "Houston International Airport",
    "iata": "HOU",
    "city": "Houston",
    "country": "USA",
    "region": "North America",
    "lat": 29.80613176408597,
    "lon": -95.32025773105073,
    "timezone": "UTC",
    "status": "operational",
    "capacity_tons_per_week": 17947,
    "utilization_pct_current": 44.6,
    "last_updated": "2026-02-13T10:13:53Z"
  },
  {
    "id": "AIR_VAN",
    "type": "airport",
    "name": "Vancouver International Airport",
    "iata": "VAN",
    "city": "Vancouver",
    "country": "Canada",
    "region": "North America",
    "lat": 49.26237078254945,
    "lon": -123.07382906350308,
    "timezone": "UTC",
    "status": "operational",
    "capacity_tons_per_week": 19766,
    "utilization_pct_current": 38.8,
    "last_updated": "2026-02-13T10:13:53Z"
  },
  {
    "id": "AIR_MEX",
    "type": "airport",
    "name": "Mexico City International Airport",
    "iata": "MEX",
    "city": "Mexico City",
    "country": "Mexico",
    "region": "North America",
    "lat": 19.413960480976975,
    "lon": -99.1781857662736,
    "timezone": "UTC",
    "status": "operational",
    "capacity_tons_per_week": 19403,
    "utilization_pct_current": 44.8,
    "last_updated": "2026-02-13T10:13:53Z"
  },
  {
    "id": "AIR_SAO",
    "type": "airport",
    "name": "Sao Paulo International Airport",
    "iata": "SAO",
    "city": "Sao Paulo",
    "country": "Brazil",
    "region": "South America",
    "lat": -23.509722109672555,
    "lon": -46.681588853475944,
    "timezone": "UTC",
    "status": "operational",
    "capacity_tons_per_week": 21498,
    "utilization_pct_current": 39.2,
    "last_updated": "2026-02-13T10:13:53Z"
  },
  {
    "id": "AIR_BUE",
    "type": "airport",
    "name": "Buenos Aires International Airport",
    "iata": "BUE",
    "city": "Buenos Aires",
    "country": "Argentina",
    "region": "South America",
    "lat": -34.56751807980299,
    "lon": -58.39122244486817,
    "timezone": "UTC",
    "status": "delayed",
    "capacity_tons_per_week": 20667,
    "utilization_pct_current": 50.3,
    "last_updated": "2026-02-13T10:13:53Z"
  },
  {
    "id": "AIR_ROT",
    "type": "airport",
    "name": "Rotterdam International Airport",
    "iata": "ROT",
    "city": "Rotterdam",
    "country": "Netherlands",
    "region": "Europe",
    "lat": 51.933851915353344,
    "lon": 4.48963815103321,
    "timezone": "UTC",
    "status": "operational",
    "capacity_tons_per_week": 21125,
    "utilization_pct_current": 70.0,
    "last_updated": "2026-02-13T10:13:53Z"
  },
  {
    "id": "AIR_HAM",
    "type": "airport",
    "name": "Hamburg International Airport",
    "iata": "HAM",
    "city": "Hamburg",
    "country": "Germany",
    "region": "Europe",
    "lat": 53.53273698459767,
    "lon": 9.969776569560365,
    "timezone": "UTC",
    "status": "operational",
    "capacity_tons_per_week": 12295,
    "utilization_pct_current": 49.8,
    "last_updated": "2026-02-13T10:13:53Z"
  },
  {
    "id": "AIR_LON",
    "type": "airport",
    "name": "London International Airport",
    "iata": "LON",
    "city": "London",
    "country": "UK",
    "region": "Europe",
    "lat": 51.49697858467912,
    "lon": -0.11063097770400288,
    "timezone": "UTC",
    "status": "operational",
    "capacity_tons_per_week": 12360,
    "utilization_pct_current": 92.6,
    "last_updated": "2026-02-13T10:13:53Z"
  },
  {
    "id": "AIR_IST",
    "type": "airport",
    "name": "Istanbul International Airport",
    "iata": "IST",
    "city": "Istanbul",
    "country": "Turkey",
    "region": "Europe",
    "lat": 41.05177342874448,
    "lon": 28.929331545688424,
    "timezone": "UTC",
    "status": "operational",
    "capacity_tons_per_week": 20448,
    "utilization_pct_current": 96.8,
    "last_updated": "2026-02-13T10:13:53Z"
  },
  {
    "id": "AIR_DUB",
    "type": "airport",
    "name": "Dubai International Airport",
    "iata": "DUB",
    "city": "Dubai",
    "country": "UAE",
    "region": "Middle East",
    "lat": 25.162126072109963,
    "lon": 55.24211543122671,
    "timezone": "UTC",
    "status": "operational",
    "capacity_tons_per_week": 13436,
    "utilization_pct_current": 89.6,
    "last_updated": "2026-02-13T10:13:53Z"
  },
  {
    "id": "AIR_JED",
    "type": "airport",
    "name": "Jeddah International Airport",
    "iata": "JED",
    "city": "Jeddah",
    "country": "Saudi Arabia",
    "region": "Middle East",
    "lat": 21.523727024248455,
    "lon": 39.17945270887389,
    "timezone": "UTC",
    "status": "operational",
    "capacity_tons_per_week": 19800,
    "utilization_pct_current": 78.6,
    "last_updated": "2026-02-13T10:13:53Z"
  },
  {
    "id": "AIR_DOH",
    "type": "airport",
    "name": "Doha International Airport",
    "iata": "DOH",
    "city": "Doha",
    "country": "Qatar",
    "region": "Middle East",
    "lat": 25.296567776572594,
    "lon": 51.57972330636315,
    "timezone": "UTC",
    "status": "operational",
    "capacity_tons_per_week": 2256,
    "utilization_pct_current": 76.4,
    "last_updated": "2026-02-13T10:13:53Z"
  },
  {
    "id": "AIR_JOH",
    "type": "airport",
    "name": "Johannesburg International Airport",
    "iata": "JOH",
    "city": "Johannesburg",
    "country": "South Africa",
    "region": "Africa",
    "lat": -26.198639771751033,
    "lon": 28.090475603943606,
    "timezone": "UTC",
    "status": "operational",
    "capacity_tons_per_week": 6400,
    "utilization_pct_current": 51.4,
    "last_updated": "2026-02-13T10:13:53Z"
  },
  {
    "id": "AIR_DUR",
    "type": "airport",
    "name": "Durban International Airport",
    "iata": "DUR",
    "city": "Durban",
    "country": "South Africa",
    "region": "Africa",
    "lat": -29.819728729299428,
    "lon": 31.0460416683981,
    "timezone": "UTC",
    "status": "operational",
    "capacity_tons_per_week": 11232,
    "utilization_pct_current": 72.5,
    "last_updated": "2026-02-13T10:13:53Z"
  },
  {
    "id": "AIR_LAG",
    "type": "airport",
    "name": "Lagos International Airport",
    "iata": "LAG",
    "city": "Lagos",
    "country": "Nigeria",
    "region": "Africa",
    "lat": 6.54616121871388,
    "lon": 3.349559731232745,
    "timezone": "UTC",
    "status": "operational",
    "capacity_tons_per_week": 10650,
    "utilization_pct_current": 66.3,
    "last_updated": "2026-02-13T10:13:53Z"
  },
  {
    "id": "AIR_MOM",
    "type": "airport",
    "name": "Mombasa International Airport",
    "iata": "MOM",
    "city": "Mombasa",
    "country": "Kenya",
    "region": "Africa",
    "lat": -4.068387874793011,
    "lon": 39.70901590462186,
    "timezone": "UTC",
    "status": "operational",
    "capacity_tons_per_week": 22784,
    "utilization_pct_current": 61.3,
    "last_updated": "2026-02-13T10:13:53Z"
  },
  {
    "id": "AIR_CAI",
    "type": "airport",
    "name": "Cairo International Airport",
    "iata": "CAI",
    "city": "Cairo",
    "country": "Egypt",
    "region": "Africa",
    "lat": 30.022068022397224,
    "lon": 31.18605456890878,
    "timezone": "UTC",
    "status": "delayed",
    "capacity_tons_per_week": 22876,
    "utilization_pct_current": 95.7,
    "last_updated": "2026-02-13T10:13:53Z"
  },
  {
    "id": "AIR_MUM",
    "type": "airport",
    "name": "Mumbai International Airport",
    "iata": "MUM",
    "city": "Mumbai",
    "country": "India",
    "region": "South Asia",
    "lat": 19.04215819762739,
    "lon": 72.87188355118609,
    "timezone": "UTC",
    "status": "operational",
    "capacity_tons_per_week": 20379,
    "utilization_pct_current": 35.6,
    "last_updated": "2026-02-13T10:13:53Z"
  },
  {
    "id": "AIR_CHE",
    "type": "airport",
    "name": "Chennai International Airport",
    "iata": "CHE",
    "city": "Chennai",
    "country": "India",
    "region": "South Asia",
    "lat": 13.040224386007377,
    "lon": 80.30901063933003,
    "timezone": "UTC",
    "status": "delayed",
    "capacity_tons_per_week": 19877,
    "utilization_pct_current": 37.2,
    "last_updated": "2026-02-13T10:13:53Z"
  },
  {
    "id": "AIR_COL",
    "type": "airport",
    "name": "Colombo International Airport",
    "iata": "COL",
    "city": "Colombo",
    "country": "Sri Lanka",
    "region": "South Asia",
    "lat": 6.914021598451219,
    "lon": 79.8664525096745,
    "timezone": "UTC",
    "status": "operational",
    "capacity_tons_per_week": 3370,
    "utilization_pct_current": 54.1,
    "last_updated": "2026-02-13T10:13:53Z"
  },
  {
    "id": "AIR_SHA",
    "type": "airport",
    "name": "Shanghai International Airport",
    "iata": "SHA",
    "city": "Shanghai",
    "country": "China",
    "region": "East Asia",
    "lat": 31.270298148874257,
    "lon": 121.5033122304888,
    "timezone": "UTC",
    "status": "delayed",
    "capacity_tons_per_week": 13724,
    "utilization_pct_current": 48.0,
    "last_updated": "2026-02-13T10:13:53Z"
  },
  {
    "id": "AIR_SHE",
    "type": "airport",
    "name": "Shenzhen International Airport",
    "iata": "SHE",
    "city": "Shenzhen",
    "country": "China",
    "region": "East Asia",
    "lat": 22.51805297392229,
    "lon": 114.01817936216719,
    "timezone": "UTC",
    "status": "delayed",
    "capacity_tons_per_week": 15316,
    "utilization_pct_current": 95.4,
    "last_updated": "2026-02-13T10:13:53Z"
  },
  {
    "id": "AIR_HON",
    "type": "airport",
    "name": "Hong Kong International Airport",
    "iata": "HON",
    "city": "Hong Kong",
    "country": "China",
    "region": "East Asia",
    "lat": 22.344247761114353,
    "lon": 114.21197638225695,
    "timezone": "UTC",
    "status": "operational",
    "capacity_tons_per_week": 7324,
    "utilization_pct_current": 95.5,
    "last_updated": "2026-02-13T10:13:53Z"
  },
  {
    "id": "AIR_TOK",
    "type": "airport",
    "name": "Tokyo International Airport",
    "iata": "TOK",
    "city": "Tokyo",
    "country": "Japan",
    "region": "East Asia",
    "lat": 35.70727717199404,
    "lon": 139.6884416204663,
    "timezone": "UTC",
    "status": "operational",
    "capacity_tons_per_week": 12885,
    "utilization_pct_current": 83.5,
    "last_updated": "2026-02-13T10:13:53Z"
  },
  {
    "id": "AIR_BUS",
    "type": "airport",
    "name": "Busan International Airport",
    "iata": "BUS",
    "city": "Busan",
    "country": "South Korea",
    "region": "East Asia",
    "lat": 35.170771316655156,
    "lon": 129.09259071292882,
    "timezone": "UTC",
    "status": "operational",
    "capacity_tons_per_week": 10131,
    "utilization_pct_current": 51.5,
    "last_updated": "2026-02-13T10:13:53Z"
  },
  {
    "id": "AIR_SIN",
    "type": "airport",
    "name": "Singapore International Airport",
    "iata": "SIN",
    "city": "Singapore",
    "country": "Singapore",
    "region": "Southeast Asia",
    "lat": 1.3808374509135473,
    "lon": 103.7806095626403,
    "timezone": "UTC",
    "status": "delayed",
    "capacity_tons_per_week": 17423,
    "utilization_pct_current": 48.8,
    "last_updated": "2026-02-13T10:13:53Z"
  },
  {
    "id": "AIR_HOC",
    "type": "airport",
    "name": "Ho Chi Minh City International Airport",
    "iata": "HOC",
    "city": "Ho Chi Minh City",
    "country": "Vietnam",
    "region": "Southeast Asia",
    "lat": 10.854758660559693,
    "lon": 106.62573032346789,
    "timezone": "UTC",
    "status": "operational",
    "capacity_tons_per_week": 9457,
    "utilization_pct_current": 48.8,
    "last_updated": "2026-02-13T10:13:53Z"
  },
  {
    "id": "AIR_BAN",
    "type": "airport",
    "name": "Bangkok International Airport",
    "iata": "BAN",
    "city": "Bangkok",
    "country": "Thailand",
    "region": "Southeast Asia",
    "lat": 13.772303318274862,
    "lon": 100.49164659785649,
    "timezone": "UTC",
    "status": "operational",
    "capacity_tons_per_week": 4274,
    "utilization_pct_current": 94.9,
    "last_updated": "2026-02-13T10:13:53Z"
  },
  {
    "id": "AIR_JAK",
    "type": "airport",
    "name": "Jakarta International Airport",
    "iata": "JAK",
    "city": "Jakarta",
    "country": "Indonesia",
    "region": "Southeast Asia",
    "lat": -6.230887500727813,
    "lon": 106.85974817386077,
    "timezone": "UTC",
    "status": "operational",
    "capacity_tons_per_week": 19570,
    "utilization_pct_current": 55.5,
    "last_updated": "2026-02-13T10:13:53Z"
  },
  {
    "id": "AIR_SYD",
    "type": "airport",
    "name": "Sydney International Airport",
    "iata": "SYD",
    "city": "Sydney",
    "country": "Australia",
    "region": "Oceania",
    "lat": -33.916039946488034,
    "lon": 151.24700384115758,
    "timezone": "UTC",
    "status": "operational",
    "capacity_tons_per_week": 21024,
    "utilization_pct_current": 94.7,
    "last_updated": "2026-02-13T10:13:53Z"
  },
  {
    "id": "AIR_MEL",
    "type": "airport",
    "name": "Melbourne International Airport",
    "iata": "MEL",
    "city": "Melbourne",
    "country": "Australia",
    "region": "Oceania",
    "lat": -37.83705336374771,
    "lon": 144.92394025472146,
    "timezone": "UTC",
    "status": "operational",
    "capacity_tons_per_week": 12278,
    "utilization_pct_current": 62.1,
    "last_updated": "2026-02-13T10:13:53Z"
  },
  {
    "id": "AIR_AUC",
    "type": "airport",
    "name": "Auckland International Airport",
    "iata": "AUC",
    "city": "Auckland",
    "country": "New Zealand",
    "region": "Oceania",
    "lat": -36.80007641506834,
    "lon": 174.72486457840293,
    "timezone": "UTC",
    "status": "delayed",
    "capacity_tons_per_week": 8228,
    "utilization_pct_current": 50.8,
    "last_updated": "2026-02-13T10:13:53Z"
  }
]